$GPGGA,081322.60,3958.56980741,N,11619.55728527,E,1,19,1.1,56.9835,M,-9.2769,M,00,0000*46
$GPGGA,081322.80,3958.56982642,N,11619.55729727,E,1,19,1.1,56.9260,M,-9.2769,M,00,0000*41
$GPGGA,081323.00,3958.56984603,N,11619.55730817,E,1,19,1.1,56.8658,M,-9.2769,M,00,0000*41
$GPGGA,081323.20,3958.56986526,N,11619.55732077,E,1,19,1.1,56.8088,M,-9.2769,M,00,0000*42
$GPGGA,081323.40,3958.56988428,N,11619.55733143,E,1,19,1.1,56.7447,M,-9.2769,M,00,0000*4A
$GPGGA,081323.60,3958.56990270,N,11619.55734353,E,1,19,1.1,56.6892,M,-9.2769,M,00,0000*4B
$GPGGA,081323.80,3958.56992062,N,11619.55735531,E,1,19,1.1,56.6326,M,-9.2769,M,00,0000*41
$GPGGA,081324.00,3958.56993932,N,11619.55736631,E,1,19,1.1,56.5765,M,-9.2769,M,00,0000*43
$GPGSV,1,1,04,06,59,284,45,17,70,077,48,19,73,356,49,03,26,045,38*79
$GLGSV,1,1,04,66,46,083,46,82,47,325,39,80,32,277,30,81,47,049,49*6F
$GAGSV,1,1,03,26,69,359,48,13,29,069,33,01,43,239,38*50
$BDGSV,2,1,07,27,27,092,41,30,72,029,52,32,52,107,49,29,34,300,35*6C
$BDGSV,2,2,07,08,71,324,48,13,55,272,40,38,70,291,50*5A
$GPGGA,081324.20,3958.56995637,N,11619.55737738,E,1,19,1.1,56.5199,M,-9.2769,M,00,0000*41
$GPGGA,081324.40,3958.56997316,N,11619.55738829,E,1,19,1.1,56.4689,M,-9.2769,M,00,0000*44
$GPGGA,081324.60,3958.56999085,N,11619.55739757,E,1,19,1.1,56.4130,M,-9.2769,M,00,0000*43
$GPGGA,081324.80,3958.57000837,N,11619.55740691,E,1,19,1.1,56.3551,M,-9.2769,M,00,0000*45
$GPGGA,081325.00,3958.57002401,N,11619.55741530,E,1,19,1.1,56.3069,M,-9.2769,M,00,0000*40
$GPGSV,1,1,04,06,59,284,45,17,70,077,48,19,73,356,49,03,26,045,38*79
$GLGSV,1,1,04,66,46,083,46,82,47,325,39,80,32,277,30,81,47,049,50*67
$GAGSV,1,1,03,26,69,359,48,13,29,069,31,01,43,239,38*52
$BDGSV,2,1,07,27,27,092,42,30,72,029,52,32,52,107,49,29,34,300,35*6F
$BDGSV,2,2,07,08,71,325,47,13,55,272,40,38,70,291,50*54
$GPGGA,081325.20,3958.57004018,N,11619.55742357,E,1,19,1.1,56.2560,M,-9.2769,M,00,0000*41
$GPGGA,081325.40,3958.57005689,N,11619.55743203,E,1,19,1.1,56.2019,M,-9.2769,M,00,0000*42
$GPGGA,081325.60,3958.57007166,N,11619.55744051,E,1,19,1.1,56.1513,M,-9.2769,M,00,0000*4A
$GPGGA,081325.80,3958.57008705,N,11619.55744989,E,1,19,1.1,56.1057,M,-9.2769,M,00,0000*41
$GPGGA,081326.00,3958.57010271,N,11619.55745969,E,1,19,1.1,56.0555,M,-9.2769,M,00,0000*4C
$GPGSV,1,1,04,06,59,284,45,17,70,077,48,19,73,356,49,03,26,045,38*79
$GLGSV,1,1,04,66,46,083,46,82,47,325,40,80,32,277,31,81,47,049,50*68
$GAGSV,1,1,04,26,69,359,48,13,29,069,32,31,28,305,30,01,43,239,38*6B
$BDGSV,2,1,07,27,27,092,41,30,72,029,52,32,52,107,49,29,34,300,35*6C
$BDGSV,2,2,07,08,71,325,48,13,55,272,40,38,70,291,50*5B
$GPGGA,081326.20,3958.57011587,N,11619.55747014,E,1,19,1.1,56.0016,M,-9.2769,M,00,0000*42
$GPGGA,081326.40,3958.57012981,N,11619.55748069,E,1,19,1.1,55.9529,M,-9.2769,M,00,0000*4B
$GPGGA,081326.60,3958.57014310,N,11619.55749009,E,1,19,1.1,55.8930,M,-9.2769,M,00,0000*4F
$GPGGA,081326.80,3958.57015732,N,11619.55750087,E,1,19,1.1,55.8468,M,-9.2769,M,00,0000*4A
$GPGGA,081327.00,3958.57017123,N,11619.55751099,E,1,19,1.1,55.7941,M,-9.2769,M,00,0000*40
$GPGSV,1,1,04,06,59,284,45,17,70,077,48,19,73,356,49,03,26,045,38*79
$GLGSV,1,1,04,66,46,083,47,82,47,325,40,80,32,277,31,81,47,049,50*69
$GAGSV,1,1,04,26,69,359,48,13,29,069,33,31,28,305,31,01,43,239,38*6B
$BDGSV,2,1,07,27,27,092,38,30,72,029,52,32,52,107,49,29,34,300,35*62
$BDGSV,2,2,07,08,71,325,48,13,55,272,40,38,70,291,50*5B
$GPGGA,081327.20,3958.57018640,N,11619.55752332,E,1,19,1.1,55.7481,M,-9.2769,M,00,0000*4F
$GPGGA,081327.40,3958.57020128,N,11619.55753456,E,1,19,1.1,55.7007,M,-9.2769,M,00,0000*45
$GPGGA,081327.60,3958.57021432,N,11619.55754428,E,1,19,1.1,55.6483,M,-9.2769,M,00,0000*4F
$GPGGA,081327.80,3958.57022822,N,11619.55755438,E,1,19,1.1,55.5992,M,-9.2769,M,00,0000*41
$GPGGA,081328.00,3958.57024193,N,11619.55756341,E,1,19,1.1,55.5496,M,-9.2769,M,00,0000*40
$GPGSV,1,1,04,06,59,284,45,17,70,077,48,19,73,356,48,03,26,045,38*78
$GLGSV,1,1,04,66,46,083,46,82,47,325,40,80,32,277,30,81,47,049,49*61
$GAGSV,2,1,05,26,69,359,48,13,29,069,33,31,28,305,32,01,43,239,38*6A
$GAGSV,2,2,05,07,29,116,28*5D
$BDGSV,2,1,07,27,27,092,38,30,72,029,52,32,52,107,49,29,34,300,35*62
$BDGSV,2,2,07,08,71,325,48,13,55,272,40,38,70,291,50*5B
$GPGGA,081328.20,3958.57025052,N,11619.55756663,E,1,21,1.0,55.5247,M,-9.2769,M,00,0000*4A
$GPGGA,081328.40,3958.57025886,N,11619.55756855,E,1,21,1.0,55.4994,M,-9.2769,M,00,0000*42
$GPGGA,081328.60,3958.57027243,N,11619.55757950,E,1,19,1.1,55.4289,M,-9.2769,M,00,0000*49
$GPGGA,081328.80,3958.57028466,N,11619.55758981,E,1,19,1.1,55.3606,M,-9.2769,M,00,0000*4E
$GPGGA,081329.00,3958.57029702,N,11619.55760135,E,1,19,1.1,55.2932,M,-9.2769,M,00,0000*42
$GPGSV,1,1,04,06,59,284,45,17,70,077,48,19,73,356,49,03,26,045,38*79
$GLGSV,1,1,04,66,46,083,47,82,47,325,40,80,32,277,32,81,47,049,50*6A
$GAGSV,2,1,05,26,69,359,48,13,29,069,33,31,28,305,32,01,43,239,38*6A
$GAGSV,2,2,05,07,29,116,31*55
$BDGSV,2,1,07,27,27,092,38,30,72,029,52,32,52,107,49,29,34,300,35*62
$BDGSV,2,2,07,08,71,325,48,13,55,272,41,38,70,291,50*5A
$GPGGA,081329.20,3958.57030586,N,11619.55760334,E,1,21,1.0,55.2794,M,-9.2769,M,00,0000*4D
$GPGGA,081329.40,3958.57031420,N,11619.55760554,E,1,21,1.0,55.2677,M,-9.2769,M,00,0000*4B
$GPGGA,081329.60,3958.57032221,N,11619.55760823,E,1,21,1.0,55.2554,M,-9.2769,M,00,0000*42
$GPGGA,081329.80,3958.57033170,N,11619.55761189,E,1,21,1.0,55.2472,M,-9.2769,M,00,0000*47
$GPGGA,081330.00,3958.57033872,N,11619.55761436,E,1,21,1.0,55.2353,M,-9.2769,M,00,0000*49
$GPGSV,1,1,04,06,59,284,45,17,70,077,48,19,73,356,49,03,26,045,38*79
$GLGSV,1,1,04,66,46,083,46,82,47,325,41,80,32,277,32,81,47,049,50*6A
$GAGSV,2,1,05,26,69,359,48,13,29,069,33,31,28,305,32,01,43,239,38*6A
$GAGSV,2,2,05,07,29,116,31*55
$BDGSV,2,1,07,27,27,092,38,30,72,029,52,32,52,107,49,29,34,300,35*62
$BDGSV,2,2,07,08,71,325,48,13,55,272,41,38,70,291,50*5A
$GPGGA,081330.20,3958.57034892,N,11619.55761505,E,1,21,1.0,55.2306,M,-9.2769,M,00,0000*43
$GPGGA,081330.40,3958.57035712,N,11619.55761664,E,1,21,1.0,55.2319,M,-9.2769,M,00,0000*49
$GPGGA,081330.60,3958.57036582,N,11619.55761658,E,1,21,1.0,55.2238,M,-9.2769,M,00,0000*4E
$GPGGA,081330.80,3958.57037498,N,11619.55761711,E,1,21,1.0,55.2259,M,-9.2769,M,00,0000*40
$GPGGA,081331.00,3958.57038403,N,11619.55761754,E,1,21,1.0,55.2269,M,-9.2769,M,00,0000*46
$GPGSV,1,1,04,06,59,284,45,17,70,077,48,19,73,356,49,03,26,045,38*79
$GLGSV,1,1,04,66,46,083,46,82,47,325,41,80,32,277,31,81,47,049,50*69
$GAGSV,2,1,05,26,69,359,48,13,29,069,33,31,28,305,33,01,43,239,38*6B
$GAGSV,2,2,05,07,29,116,33*57
$BDGSV,2,1,07,27,27,092,37,30,72,029,52,32,52,107,49,29,34,300,35*6D
$BDGSV,2,2,07,08,71,325,48,13,55,272,41,38,70,291,50*5A
$GPGGA,081331.20,3958.57039349,N,11619.55761886,E,1,21,1.0,55.2285,M,-9.2769,M,00,0000*4E
$GPGGA,081331.40,3958.57040170,N,11619.55761959,E,1,21,1.0,55.2257,M,-9.2769,M,00,0000*42
$GPGGA,081331.60,3958.57041051,N,11619.55762130,E,1,21,1.0,55.2246,M,-9.2769,M,00,0000*47
$GPGGA,081331.80,3958.57041853,N,11619.55762276,E,1,21,1.0,55.2301,M,-9.2769,M,00,0000*40
$GPGGA,081332.00,3958.57042519,N,11619.55762464,E,1,21,1.0,55.2357,M,-9.2769,M,00,0000*4D
$GPGSV,1,1,04,06,59,284,45,17,70,077,48,19,73,356,49,03,26,045,38*79
$GLGSV,1,1,04,66,46,083,47,82,47,325,42,80,32,277,31,81,47,049,50*6B
$GAGSV,2,1,05,26,69,359,48,13,29,069,33,31,28,305,33,01,43,239,38*6B
$GAGSV,2,2,05,07,29,116,32*56
$BDGSV,2,1,07,27,27,092,38,30,72,029,52,32,52,107,49,29,34,300,35*62
$BDGSV,2,2,07,08,71,325,48,13,55,272,41,38,70,291,50*5A
$GPGGA,081332.20,3958.57043662,N,11619.55762273,E,1,21,1.0,55.2410,M,-9.2769,M,00,0000*45
$GPGGA,081332.40,3958.57044738,N,11619.55762078,E,1,21,1.0,55.2491,M,-9.2769,M,00,0000*4A
$GPGGA,081332.60,3958.57045822,N,11619.55762117,E,1,21,1.0,55.2640,M,-9.2769,M,00,0000*4B
$GPGGA,081332.80,3958.57046899,N,11619.55762270,E,1,21,1.0,55.2779,M,-9.2769,M,00,0000*4F
$GPGGA,081333.00,3958.57047883,N,11619.55762438,E,1,21,1.0,55.2926,M,-9.2769,M,00,0000*42
$GPGSV,1,1,04,06,59,284,45,17,70,077,48,19,73,356,49,03,26,045,38*79
$GLGSV,1,1,04,66,46,083,47,82,47,325,42,80,32,277,30,81,47,049,50*6A
$GAGSV,2,1,05,26,69,359,48,13,29,069,33,31,28,305,33,01,43,239,38*6B
$GAGSV,2,2,05,07,29,116,32*56
$BDGSV,2,1,07,27,27,092,39,30,72,029,52,32,52,107,49,29,34,300,35*63
$BDGSV,2,2,07,08,71,325,48,13,55,272,41,38,70,291,50*5A
$GPGGA,081333.20,3958.57048821,N,11619.55762479,E,1,21,1.0,55.2983,M,-9.2769,M,00,0000*4D
$GPGGA,081333.40,3958.57049776,N,11619.55762517,E,1,21,1.0,55.3085,M,-9.2769,M,00,0000*40
$GPGGA,081333.60,3958.57050588,N,11619.55762523,E,1,21,1.0,55.3163,M,-9.2769,M,00,0000*47
$GPGGA,081333.80,3958.57051509,N,11619.55762551,E,1,21,1.0,55.3282,M,-9.2769,M,00,0000*48
$GPGGA,081334.00,3958.57052223,N,11619.55762513,E,1,21,1.0,55.3412,M,-9.2769,M,00,0000*42
$GPGSV,1,1,04,06,59,284,45,17,70,077,48,19,73,356,49,03,26,045,38*79
$GLGSV,1,1,04,66,46,083,47,82,47,325,42,80,32,277,30,81,47,049,50*6A
$GAGSV,2,1,05,26,69,359,48,13,29,069,33,31,28,305,34,01,43,239,38*6C
$GAGSV,2,2,05,07,29,116,32*56
$BDGSV,2,1,07,27,27,092,39,30,72,029,52,32,52,107,49,29,34,300,35*63
$BDGSV,2,2,07,08,71,325,48,13,55,272,41,38,70,291,50*5A
$GPGGA,081334.20,3958.57052951,N,11619.55762546,E,1,21,1.0,55.3533,M,-9.2769,M,00,0000*4C
$GPGGA,081334.40,3958.57053679,N,11619.55762501,E,1,21,1.0,55.3607,M,-9.2769,M,00,0000*49
$GPGGA,081334.60,3958.57054530,N,11619.55762748,E,1,21,1.0,55.3768,M,-9.2769,M,00,0000*45
$GPGGA,081334.80,3958.57055217,N,11619.55762818,E,1,21,1.0,55.3835,M,-9.2769,M,00,0000*45
$GPGGA,081335.00,3958.57055904,N,11619.55762907,E,1,21,1.0,55.3921,M,-9.2769,M,00,0000*4E
$GPGSV,1,1,04,06,59,284,45,17,70,077,48,19,73,356,49,03,26,045,39*78
$GLGSV,1,1,04,66,46,083,46,82,47,325,41,80,32,277,30,81,47,049,50*68
$GAGSV,2,1,05,26,69,359,48,13,29,069,32,31,28,305,34,01,43,239,38*6D
$GAGSV,2,2,05,07,29,116,32*56
$BDGSV,2,1,07,27,27,092,41,30,72,029,52,32,52,107,49,29,34,300,36*6F
$BDGSV,2,2,07,08,71,325,48,13,55,272,41,38,70,291,50*5A
$GPGGA,081335.20,3958.57056473,N,11619.55762811,E,1,21,1.0,55.3941,M,-9.2769,M,00,0000*42
$GPGGA,081335.40,3958.57057121,N,11619.55762930,E,1,21,1.0,55.4052,M,-9.2769,M,00,0000*49
$GPGGA,081335.60,3958.57057750,N,11619.55763108,E,1,21,1.0,55.4185,M,-9.2769,M,00,0000*42
$GPGGA,081335.80,3958.57058426,N,11619.55763347,E,1,21,1.0,55.4296,M,-9.2769,M,00,0000*49
$GPGGA,081336.00,3958.57059007,N,11619.55763515,E,1,21,1.0,55.4362,M,-9.2769,M,00,0000*4F
$GPGSV,1,1,04,06,59,284,45,17,70,077,48,19,73,356,49,03,26,045,38*79
$GLGSV,1,1,04,66,46,083,46,82,47,325,42,80,32,277,30,81,47,049,50*6B
$GAGSV,2,1,05,26,69,359,48,13,29,069,30,31,28,305,34,01,43,239,38*6F
$GAGSV,2,2,05,07,29,116,31*55
$BDGSV,2,1,07,27,27,092,41,30,72,029,52,32,52,107,49,29,34,300,36*6F
$BDGSV,2,2,07,08,71,325,48,13,55,272,40,38,70,291,50*5B
$GPGGA,081336.20,3958.57059546,N,11619.55763605,E,1,21,1.0,55.4495,M,-9.2769,M,00,0000*40
$GPGGA,081336.40,3958.57060108,N,11619.55763733,E,1,21,1.0,55.4567,M,-9.2769,M,00,0000*4A
$GPGGA,081336.60,3958.57058880,N,11619.55763314,E,1,18,1.3,55.4300,M,-9.2769,M,00,0000*45
$GPGGA,081336.80,3958.57057619,N,11619.55762789,E,1,18,1.3,55.4009,M,-9.2769,M,00,0000*41
$GPGGA,081337.00,3958.57056474,N,11619.55762426,E,1,18,1.3,55.3738,M,-9.2769,M,00,0000*44
$GPGSV,1,1,04,06,59,284,44,17,70,077,48,19,73,356,49,03,26,045,38*78
$GLGSV,1,1,04,66,46,083,47,82,47,325,41,80,32,277,31,81,47,049,50*68
$GAGSV,2,1,05,26,69,359,48,13,29,069,29,31,28,305,34,01,43,239,38*67
$GAGSV,2,2,05,07,29,116,30*54
$BDGSV,2,1,07,27,27,092,41,30,72,029,52,32,52,107,49,29,34,300,36*6F
$BDGSV,2,2,07,08,71,325,48,13,55,272,40,38,70,291,50*5B
$GPGGA,081337.20,3958.57055227,N,11619.55761935,E,1,18,1.3,55.3403,M,-9.2769,M,00,0000*42
$GPGGA,081337.40,3958.57054121,N,11619.55761498,E,1,18,1.3,55.3141,M,-9.2769,M,00,0000*49
$GPGGA,081337.60,3958.57053001,N,11619.55761146,E,1,18,1.3,55.2876,M,-9.2769,M,00,0000*45
$GPGGA,081337.80,3958.57051816,N,11619.55760825,E,1,18,1.3,55.2609,M,-9.2769,M,00,0000*4C
$GPGGA,081338.00,3958.57050709,N,11619.55760406,E,1,18,1.3,55.2320,M,-9.2769,M,00,0000*48
$GPGSV,1,1,04,06,59,284,44,17,70,077,48,19,73,356,49,03,26,045,38*78
$GLGSV,1,1,04,66,46,083,46,82,47,325,41,80,32,277,31,81,47,049,50*69
$GAGSV,2,1,05,26,69,359,48,13,29,069,29,31,28,305,34,01,43,239,38*67
$GAGSV,2,2,05,07,29,116,30*54
$BDGSV,2,1,07,27,27,092,41,30,72,029,51,32,52,107,48,29,34,300,36*6D
$BDGSV,2,2,07,08,71,325,47,13,55,272,40,38,70,291,50*54
$GPGGA,081338.20,3958.57049636,N,11619.55759903,E,1,18,1.3,55.1990,M,-9.2769,M,00,0000*4F
$GPGGA,081338.40,3958.57050918,N,11619.55760954,E,1,21,1.0,55.2081,M,-9.2769,M,00,0000*49
$GPGGA,081338.60,3958.57052068,N,11619.55761944,E,1,21,1.0,55.2142,M,-9.2769,M,00,0000*49
$GPGGA,081338.80,3958.57053266,N,11619.55762928,E,1,21,1.0,55.2164,M,-9.2769,M,00,0000*47
$GPGGA,081339.00,3958.57054529,N,11619.55763943,E,1,21,1.0,55.2248,M,-9.2769,M,00,0000*44
$GPGSV,1,1,04,06,59,284,45,17,70,077,48,19,73,356,49,03,26,045,38*79
$GLGSV,1,1,04,66,46,083,47,82,47,325,42,80,32,277,32,81,47,049,50*68
$GAGSV,2,1,05,26,69,359,48,13,29,069,31,31,28,305,34,01,43,239,38*6E
$GAGSV,2,2,05,07,29,116,32*56
$BDGSV,2,1,07,27,27,092,38,30,72,029,52,32,52,107,49,29,34,300,36*61
$BDGSV,2,2,07,08,71,325,48,13,55,272,41,38,70,291,50*5A
$GPGGA,081339.20,3958.57055737,N,11619.55764754,E,1,21,1.0,55.2257,M,-9.2769,M,00,0000*4B
$GPGGA,081339.40,3958.57056987,N,11619.55765782,E,1,21,1.0,55.2326,M,-9.2769,M,00,0000*46
$GPGGA,081339.60,3958.57058243,N,11619.55766676,E,1,21,1.0,55.2311,M,-9.2769,M,00,0000*44
$GPGGA,081339.80,3958.57059464,N,11619.55767565,E,1,21,1.0,55.2341,M,-9.2769,M,00,0000*4D
$GPGGA,081340.00,3958.57060757,N,11619.55768521,E,1,21,1.0,55.2375,M,-9.2769,M,00,0000*4A
$GPGSV,1,1,04,06,59,284,45,17,70,077,48,19,73,356,48,03,26,045,38*78
$GLGSV,1,1,04,66,46,083,47,82,47,325,42,80,32,277,31,81,47,050,50*63
$GAGSV,2,1,05,26,69,359,48,13,29,069,32,31,28,305,34,01,43,239,38*6D
$GAGSV,2,2,05,07,29,116,32*56
$BDGSV,2,1,07,27,27,092,36,30,72,029,52,32,52,107,49,29,34,300,35*6C
$BDGSV,2,2,07,08,71,325,48,13,55,272,41,38,70,291,50*5A
$GPGGA,081340.20,3958.57061893,N,11619.55769354,E,1,21,1.0,55.2400,M,-9.2769,M,00,0000*4E
$GPGGA,081340.40,3958.57063181,N,11619.55770301,E,1,21,1.0,55.2492,M,-9.2769,M,00,0000*43
$GPGGA,081340.60,3958.57064345,N,11619.55771244,E,1,21,1.0,55.2551,M,-9.2769,M,00,0000*43
$GPGGA,081340.80,3958.57065518,N,11619.55772275,E,1,21,1.0,55.2564,M,-9.2769,M,00,0000*45
$GPGGA,081341.00,3958.57066665,N,11619.55773189,E,1,21,1.0,55.2573,M,-9.2769,M,00,0000*41
$GPGSV,1,1,04,06,59,284,45,17,70,077,48,19,73,356,48,03,26,045,38*78
$GLGSV,1,1,04,66,46,083,47,82,47,325,43,80,32,277,31,81,47,050,50*62
$GAGSV,2,1,05,26,69,359,48,13,29,069,32,31,28,305,33,01,43,239,38*6A
$GAGSV,2,2,05,07,29,116,32*56
$BDGSV,2,1,07,27,27,092,36,30,72,029,52,32,52,107,49,29,34,300,35*6C
$BDGSV,2,2,07,08,71,325,48,13,55,272,41,38,70,291,50*5A
$GPGGA,081341.20,3958.57067805,N,11619.55774069,E,1,21,1.0,55.2659,M,-9.2769,M,00,0000*49
$GPGGA,081341.40,3958.57068887,N,11619.55774972,E,1,21,1.0,55.2680,M,-9.2769,M,00,0000*4D
$GPGGA,081341.60,3958.57070051,N,11619.55775771,E,1,21,1.0,55.2661,M,-9.2769,M,00,0000*46
$GPGGA,081341.80,3958.57071112,N,11619.55776563,E,1,21,1.0,55.2710,M,-9.2769,M,00,0000*4A
$GPGGA,081342.00,3958.57072245,N,11619.55777425,E,1,21,1.0,55.2771,M,-9.2769,M,00,0000*46
$GPGSV,1,1,04,06,59,284,45,17,70,077,48,19,73,356,48,03,26,045,38*78
$GLGSV,1,1,04,66,46,083,46,82,47,325,43,80,32,277,31,81,47,050,50*63
$GAGSV,2,1,05,26,69,359,48,13,29,069,32,31,28,305,34,01,43,239,38*6D
$GAGSV,2,2,05,07,29,116,32*56
$BDGSV,2,1,07,27,27,092,36,30,72,029,52,32,52,107,49,29,34,300,35*6C
$BDGSV,2,2,07,08,71,325,48,13,55,272,41,38,70,291,50*5A
$GPGGA,081342.20,3958.57073179,N,11619.55778238,E,1,21,1.0,55.2744,M,-9.2769,M,00,0000*4A
$GPGGA,081342.40,3958.57074046,N,11619.55779036,E,1,21,1.0,55.2788,M,-9.2769,M,00,0000*4B
$GPGGA,081342.60,3958.57074994,N,11619.55779845,E,1,21,1.0,55.2847,M,-9.2769,M,00,0000*4F
$GPGGA,081342.80,3958.57075923,N,11619.55780524,E,1,21,1.0,55.2894,M,-9.2769,M,00,0000*4E
$GPGGA,081343.00,3958.57076795,N,11619.55781293,E,1,21,1.0,55.2929,M,-9.2769,M,00,0000*4A
$GPGSV,1,1,04,06,59,284,45,17,70,077,48,19,73,356,48,03,26,045,37*77
$GLGSV,1,1,04,66,46,083,47,82,47,325,42,80,32,277,31,81,47,050,50*63
$GAGSV,2,1,05,26,69,359,48,13,29,069,32,31,28,305,33,01,43,239,38*6A
$GAGSV,2,2,05,07,29,116,32*56
$BDGSV,2,1,07,27,27,092,36,30,72,029,52,32,52,107,49,29,34,300,36*6F
$BDGSV,2,2,07,08,71,325,48,13,55,272,41,38,70,291,50*5A
$GPGGA,081343.20,3958.57077641,N,11619.55782057,E,1,21,1.0,55.2936,M,-9.2769,M,00,0000*46
$GPGGA,081343.40,3958.57078635,N,11619.55782893,E,1,21,1.0,55.2996,M,-9.2769,M,00,0000*46
$GPGGA,081343.60,3958.57079611,N,11619.55783676,E,1,21,1.0,55.3065,M,-9.2769,M,00,0000*43
$GPGGA,081343.80,3958.57080461,N,11619.55784414,E,1,21,1.0,55.3126,M,-9.2769,M,00,0000*49
$GPGGA,081344.00,3958.57081266,N,11619.55785197,E,1,21,1.0,55.3114,M,-9.2769,M,00,0000*48
$GPGSV,1,1,04,06,59,284,45,17,70,077,48,19,73,356,48,03,26,045,37*77
$GLGSV,1,1,04,66,46,083,47,82,47,325,43,80,32,277,30,81,47,050,50*63
$GAGSV,2,1,05,26,69,359,48,13,29,069,32,31,28,305,33,01,43,239,38*6A
$GAGSV,2,2,05,07,29,116,31*55
$BDGSV,2,1,07,27,27,092,36,30,72,029,52,32,52,107,49,29,34,300,36*6F
$BDGSV,2,2,07,08,71,325,48,13,55,272,40,38,70,291,50*5B
$GPGGA,081344.20,3958.57082106,N,11619.55786049,E,1,21,1.0,55.3150,M,-9.2769,M,00,0000*4D
$GPGGA,081344.40,3958.57082934,N,11619.55786765,E,1,21,1.0,55.3113,M,-9.2769,M,00,0000*4C
$GPGGA,081344.60,3958.57083699,N,11619.55787476,E,1,20,1.0,55.3129,M,-9.2769,M,00,0000*4F
$GPGGA,081344.80,3958.57084629,N,11619.55788315,E,1,21,1.0,55.3106,M,-9.2769,M,00,0000*4C
$GPGGA,081345.00,3958.57085403,N,11619.55789086,E,1,21,1.0,55.3130,M,-9.2769,M,00,0000*43
$GPGSV,1,1,04,06,59,284,45,17,70,077,48,19,73,356,48,03,26,045,37*77
$GLGSV,1,1,04,66,46,083,47,82,47,325,43,80,32,277,30,81,47,050,49*6B
$GAGSV,2,1,05,26,69,359,48,13,29,069,32,31,28,305,33,01,43,239,38*6A
$GAGSV,2,2,05,07,29,116,31*55
$BDGSV,2,1,07,27,27,092,37,30,72,029,51,32,52,107,49,29,34,300,36*6D
$BDGSV,2,2,07,08,71,325,48,13,55,272,40,38,70,291,50*5B
$GPGGA,081345.20,3958.57086218,N,11619.55789906,E,1,21,1.0,55.3130,M,-9.2769,M,00,0000*4F
$GPGGA,081345.40,3958.57086999,N,11619.55790785,E,1,20,1.0,55.3156,M,-9.2769,M,00,0000*47
$GPGGA,081345.60,3958.57087783,N,11619.55791482,E,1,20,1.0,55.3164,M,-9.2769,M,00,0000*45
$GPGGA,081345.80,3958.57088550,N,11619.55792245,E,1,20,1.0,55.3147,M,-9.2769,M,00,0000*47
$GPGGA,081346.00,3958.57089405,N,11619.55793037,E,1,20,1.0,55.3095,M,-9.2769,M,00,0000*44
$GPGSV,1,1,04,06,59,284,45,17,70,077,48,19,73,356,48,03,26,045,37*77
$GLGSV,1,1,04,66,46,083,47,82,47,325,43,80,32,277,29,81,47,050,49*63
$GAGSV,2,1,05,26,69,000,48,13,29,069,32,31,28,305,33,01,43,239,38*65
$GAGSV,2,2,05,07,29,116,31*55
$BDGSV,2,1,07,27,27,092,38,30,72,029,51,32,52,107,49,29,34,300,35*61
$BDGSV,2,2,07,08,71,325,48,13,55,272,40,38,70,291,50*5B
$GPGGA,081346.20,3958.57090242,N,11619.55793774,E,1,20,1.0,55.3085,M,-9.2769,M,00,0000*4A
$GPGGA,081346.40,3958.57090968,N,11619.55794289,E,1,20,1.0,55.3020,M,-9.2769,M,00,0000*40
$GPGGA,081346.60,3958.57091673,N,11619.55794862,E,1,20,1.0,55.2911,M,-9.2769,M,00,0000*43
$GPGGA,081346.80,3958.57092232,N,11619.55795340,E,1,20,1.0,55.2874,M,-9.2769,M,00,0000*47
$GPGGA,081347.00,3958.57092733,N,11619.55795806,E,1,21,1.0,55.2818,M,-9.2769,M,00,0000*48
$GPGSV,1,1,04,06,59,284,45,17,70,077,48,19,73,356,49,03,26,045,37*76
$GLGSV,1,1,04,66,46,083,46,82,47,325,43,80,32,277,30,81,47,050,49*6A
$GAGSV,2,1,05,26,69,000,48,13,29,069,30,31,28,305,33,01,43,239,37*68
$GAGSV,2,2,05,07,29,116,30*54
$BDGSV,2,1,07,27,27,092,40,30,72,029,51,32,52,107,49,29,34,300,35*6E
$BDGSV,2,2,07,08,71,325,48,13,55,272,40,38,70,291,50*5B
$GPGGA,081347.20,3958.57093325,N,11619.55796355,E,1,21,1.0,55.2766,M,-9.2769,M,00,0000*40
$GPGGA,081347.40,3958.57091805,N,11619.55795398,E,1,18,1.3,55.2376,M,-9.2769,M,00,0000*43
$GPGGA,081347.60,3958.57090308,N,11619.55794522,E,1,18,1.3,55.1981,M,-9.2769,M,00,0000*41
$GPGGA,081347.80,3958.57088928,N,11619.55793605,E,1,18,1.3,55.1623,M,-9.2769,M,00,0000*48
$GPGGA,081348.00,3958.57087655,N,11619.55792666,E,1,18,1.3,55.1270,M,-9.2769,M,00,0000*43
$GPGSV,1,1,04,06,59,284,44,17,70,077,48,19,73,356,49,03,26,045,37*77
$GLGSV,1,1,04,66,46,083,46,82,47,325,43,80,32,277,30,81,47,050,49*6A
$GAGSV,2,1,05,26,69,000,48,13,29,069,29,31,28,305,33,01,43,239,37*60
$GAGSV,2,2,05,07,29,116,29*5C
$BDGSV,2,1,07,27,27,092,41,30,72,030,51,32,52,107,49,29,34,300,35*67
$BDGSV,2,2,07,08,71,325,48,13,55,272,40,38,70,291,50*5B
$GPGGA,081348.20,3958.57086290,N,11619.55791726,E,1,18,1.3,55.0884,M,-9.2769,M,00,0000*4B
$GPGGA,081348.40,3958.57084988,N,11619.55790828,E,1,17,1.3,55.0513,M,-9.2769,M,00,0000*41
$GPGGA,081348.60,3958.57083727,N,11619.55790064,E,1,17,1.3,55.0214,M,-9.2769,M,00,0000*4F
$GPGGA,081348.80,3958.57082580,N,11619.55789342,E,1,18,1.3,54.9837,M,-9.2769,M,00,0000*4C
$GPGGA,081349.00,3958.57081189,N,11619.55788481,E,1,18,1.3,54.9477,M,-9.2769,M,00,0000*4A
$GPGSV,1,1,04,06,59,284,44,17,70,077,48,19,73,356,48,03,26,045,36*77
$GLGSV,1,1,04,66,46,083,46,82,47,325,43,80,32,277,30,81,47,050,49*6A
$GAGSV,2,1,05,26,69,000,48,13,29,069,29,31,28,305,33,01,43,239,38*6F
$GAGSV,2,2,05,07,29,116,30*54
$BDGSV,2,1,07,27,27,092,41,30,72,030,52,32,52,107,50,29,34,300,35*6C
$BDGSV,2,2,07,08,71,325,48,13,55,272,41,38,70,291,50*5A
$GPGGA,081349.20,3958.57082503,N,11619.55789707,E,1,21,1.0,54.9381,M,-9.2769,M,00,0000*46
$GPGGA,081349.40,3958.57083643,N,11619.55790981,E,1,21,1.0,54.9360,M,-9.2769,M,00,0000*41
$GPGGA,081349.60,3958.57084888,N,11619.55792186,E,1,21,1.0,54.9274,M,-9.2769,M,00,0000*44
$GPGGA,081349.80,3958.57085973,N,11619.55793366,E,1,20,1.0,54.9226,M,-9.2769,M,00,0000*45
$GPGGA,081350.00,3958.57087169,N,11619.55794608,E,1,21,1.0,54.9096,M,-9.2769,M,00,0000*46
$GPGSV,1,1,04,06,59,284,44,17,70,077,48,19,73,356,48,03,26,045,36*77
$GLGSV,1,1,04,66,46,083,46,82,47,325,43,80,32,277,30,81,47,050,49*6A
$GAGSV,2,1,05,26,69,000,49,13,29,069,31,31,28,305,32,01,43,239,38*66
$GAGSV,2,2,05,07,29,116,30*54
$BDGSV,2,1,07,27,27,092,39,30,72,030,52,32,52,107,50,29,34,300,35*63
$BDGSV,2,2,07,08,71,325,48,13,55,272,41,38,70,291,50*5A
$GPGGA,081350.20,3958.57088463,N,11619.55795954,E,1,21,1.0,54.9011,M,-9.2769,M,00,0000*4C
$GPGGA,081350.40,3958.57089729,N,11619.55797320,E,1,21,1.0,54.8916,M,-9.2769,M,00,0000*42
$GPGGA,081350.60,3958.57090846,N,11619.55798507,E,1,21,1.0,54.8814,M,-9.2769,M,00,0000*41
$GPGGA,081350.80,3958.57091974,N,11619.55799634,E,1,20,1.0,54.8724,M,-9.2769,M,00,0000*41
$GPGGA,081351.00,3958.57093089,N,11619.55800770,E,1,20,1.0,54.8633,M,-9.2769,M,00,0000*48
$GPGSV,1,1,04,06,59,284,44,17,70,077,48,19,73,357,48,03,26,045,36*76
$GLGSV,1,1,04,66,46,083,46,82,47,325,43,80,32,277,29,81,47,050,49*62
$GAGSV,2,1,05,26,69,000,49,13,29,069,30,31,28,305,32,01,43,239,38*67
$GAGSV,2,2,05,07,29,116,30*54
$BDGSV,2,1,07,27,27,092,38,30,72,030,52,32,52,107,50,29,34,300,35*62
$BDGSV,2,2,07,08,71,325,48,13,55,272,41,38,70,291,50*5A
$GPGGA,081351.20,3958.57094075,N,11619.55801971,E,1,20,1.0,54.8534,M,-9.2769,M,00,0000*44
$GPGGA,081351.40,3958.57095076,N,11619.55803112,E,1,21,1.0,54.8435,M,-9.2769,M,00,0000*4E
$GPGGA,081351.60,3958.57096068,N,11619.55804105,E,1,20,1.0,54.8360,M,-9.2769,M,00,0000*47
$GPGGA,081351.80,3958.57096956,N,11619.55805126,E,1,20,1.0,54.8252,M,-9.2769,M,00,0000*4D
$GPGGA,081352.00,3958.57098019,N,11619.55806257,E,1,20,1.0,54.8144,M,-9.2769,M,00,0000*48
$GPGSV,1,1,04,06,59,284,44,17,70,077,48,19,73,357,48,03,26,045,36*76
$GLGSV,1,1,04,66,46,083,46,82,47,325,42,80,32,277,29,81,47,050,48*62
$GAGSV,2,1,05,26,69,000,49,13,29,069,30,31,28,305,32,01,43,239,39*66
$GAGSV,2,2,05,07,29,116,31*55
$BDGSV,2,1,07,27,27,092,40,30,72,030,52,32,52,107,50,29,34,300,36*6E
$BDGSV,2,2,07,08,71,325,48,13,55,272,41,38,70,291,50*5A
$GPGGA,081352.20,3958.57098993,N,11619.55807318,E,1,20,1.0,54.8076,M,-9.2769,M,00,0000*4A
$GPGGA,081352.40,3958.57099827,N,11619.55808229,E,1,20,1.0,54.7927,M,-9.2769,M,00,0000*4D
$GPGGA,081352.60,3958.57100741,N,11619.55809193,E,1,20,1.0,54.7819,M,-9.2769,M,00,0000*4E
$GPGGA,081352.80,3958.57101802,N,11619.55810241,E,1,20,1.0,54.7690,M,-9.2769,M,00,0000*42
$GPGGA,081353.00,3958.57102803,N,11619.55811305,E,1,20,1.0,54.7610,M,-9.2769,M,00,0000*41
$GPGSV,1,1,04,06,59,284,44,17,70,077,48,19,73,357,48,03,26,045,36*76
$GLGSV,1,1,04,66,46,083,46,82,47,325,42,80,32,277,28,81,47,050,48*63
$GAGSV,2,1,05,26,69,000,48,13,29,069,30,31,28,305,31,01,43,239,38*65
$GAGSV,2,2,05,07,29,116,30*54
$BDGSV,2,1,07,27,27,092,39,30,72,030,51,32,52,107,49,29,34,300,36*6B
$BDGSV,2,2,07,08,71,325,48,13,55,272,40,38,70,291,50*5B
$GPGGA,081353.20,3958.57103811,N,11619.55812203,E,1,20,1.0,54.7432,M,-9.2769,M,00,0000*47
$GPGGA,081353.40,3958.57104696,N,11619.55813107,E,1,20,1.0,54.7339,M,-9.2769,M,00,0000*4D
$GPGGA,081353.60,3958.57105618,N,11619.55814080,E,1,20,1.0,54.7260,M,-9.2769,M,00,0000*4C
$GPGGA,081353.80,3958.57104508,N,11619.55813143,E,1,17,1.3,54.6993,M,-9.2769,M,00,0000*49
$GPGGA,081354.00,3958.57103424,N,11619.55812155,E,1,17,1.3,54.6708,M,-9.2769,M,00,0000*44
$GPGSV,1,1,04,06,59,284,44,17,70,077,48,19,73,357,49,03,26,045,36*77
$GLGSV,1,1,04,66,46,083,46,82,47,325,42,80,32,277,28,81,47,050,49*62
$GAGSV,2,1,05,26,69,000,48,13,29,069,30,31,28,305,31,01,43,239,38*65
$GAGSV,2,2,05,07,29,116,29*5C
$BDGSV,2,1,07,27,27,092,40,30,72,030,52,32,52,107,50,29,34,300,36*6E
$BDGSV,2,2,07,08,71,325,48,13,55,272,41,38,70,291,50*5A
$GPGGA,081354.20,3958.57102361,N,11619.55811027,E,1,17,1.3,54.6384,M,-9.2769,M,00,0000*46
$GPGGA,081354.40,3958.57101277,N,11619.55810094,E,1,17,1.3,54.6118,M,-9.2769,M,00,0000*4B
$GPGGA,081354.60,3958.57100130,N,11619.55809138,E,1,17,1.3,54.5819,M,-9.2769,M,00,0000*4C
$GPGGA,081354.80,3958.57099261,N,11619.55808226,E,1,17,1.3,54.5526,M,-9.2769,M,00,0000*48
$GPGGA,081355.00,3958.57098274,N,11619.55807381,E,1,17,1.3,54.5298,M,-9.2769,M,00,0000*45
$GPGSV,1,1,04,06,59,284,44,17,70,077,48,19,73,357,49,03,26,045,36*77
$GLGSV,1,1,04,66,46,083,45,82,47,325,42,80,32,277,28,81,47,050,49*61
$GAGSV,2,1,05,26,69,000,48,13,29,069,29,31,28,305,30,01,43,239,37*63
$GAGSV,2,2,05,07,29,116,29*5C
$BDGSV,2,1,07,27,27,092,40,30,72,030,51,32,52,107,50,29,34,300,35*6E
$BDGSV,2,2,07,08,71,325,48,13,55,272,40,38,70,291,50*5B
$GPGGA,081355.20,3958.57097343,N,11619.55806446,E,1,17,1.3,54.5005,M,-9.2769,M,00,0000*46
$GPGGA,081355.40,3958.57096422,N,11619.55805499,E,1,17,1.3,54.4756,M,-9.2769,M,00,0000*40
$GPGGA,081355.60,3958.57095437,N,11619.55804686,E,1,17,1.3,54.4576,M,-9.2769,M,00,0000*48
$GPGGA,081355.80,3958.57094493,N,11619.55803813,E,1,17,1.3,54.4337,M,-9.2769,M,00,0000*4F
$GPGGA,081356.00,3958.57093587,N,11619.55802968,E,1,17,1.3,54.4135,M,-9.2769,M,00,0000*4B
$GPGSV,1,1,04,06,59,284,44,17,70,077,48,19,73,357,49,03,26,045,36*77
$GLGSV,1,1,04,66,46,083,45,82,47,325,42,80,32,277,28,81,47,050,49*61
$GAGSV,2,1,05,26,69,000,48,13,29,069,29,31,28,305,30,01,43,239,37*63
$GAGSV,2,2,05,07,29,116,29*5C
$BDGSV,2,1,07,27,27,092,40,30,72,030,51,32,52,107,50,29,34,300,35*6E
$BDGSV,2,2,07,08,71,325,48,13,55,272,41,38,70,291,50*5A
$GPGGA,081356.20,3958.57092698,N,11619.55802032,E,1,17,1.3,54.3902,M,-9.2769,M,00,0000*48
$GPGGA,081356.40,3958.57091773,N,11619.55801227,E,1,17,1.3,54.3715,M,-9.2769,M,00,0000*44
$GPGGA,081356.60,3958.57090983,N,11619.55800517,E,1,17,1.3,54.3550,M,-9.2769,M,00,0000*40
$GPGGA,081356.80,3958.57090010,N,11619.55799695,E,1,17,1.3,54.3324,M,-9.2769,M,00,0000*4E
$GPGGA,081357.00,3958.57089150,N,11619.55798957,E,1,17,1.3,54.3094,M,-9.2769,M,00,0000*42
$GPGSV,1,1,04,06,59,284,43,17,70,077,48,19,73,357,49,03,26,045,36*70
$GLGSV,1,1,04,66,46,083,45,82,47,325,41,80,32,277,29,81,47,050,48*62
$GAGSV,2,1,05,26,69,000,49,13,29,069,28,31,28,305,29,01,43,239,37*6B
$GAGSV,2,2,05,07,29,116,27*52
$BDGSV,2,1,07,27,27,092,40,30,72,030,51,32,52,107,50,29,34,300,35*6E
$BDGSV,2,2,07,08,71,325,48,13,55,272,40,38,70,291,50*5B
$GPGGA,081357.20,3958.57088289,N,11619.55798170,E,1,17,1.3,54.2864,M,-9.2769,M,00,0000*4D
$GPGGA,081357.40,3958.57087293,N,11619.55797407,E,1,17,1.3,54.2633,M,-9.2769,M,00,0000*49
$GPGGA,081357.60,3958.57086410,N,11619.55796705,E,1,17,1.3,54.2414,M,-9.2769,M,00,0000*40
$GPGGA,081357.80,3958.57085683,N,11619.55795936,E,1,17,1.3,54.2170,M,-9.2769,M,00,0000*4F
$GPGGA,081358.00,3958.57084806,N,11619.55795199,E,1,17,1.3,54.1958,M,-9.2769,M,00,0000*46
$GPGSV,1,1,04,06,59,284,43,17,70,077,48,19,73,357,49,03,26,045,36*70
$GLGSV,1,1,04,66,46,083,46,82,47,325,42,80,32,277,29,81,47,050,48*62
$GAGSV,2,1,05,26,69,000,48,13,29,069,29,31,28,305,29,01,43,239,37*6B
$GAGSV,2,2,05,07,29,116,28*5D
$BDGSV,2,1,07,27,27,092,41,30,72,030,51,32,52,107,50,29,34,300,35*6F
$BDGSV,2,2,07,08,71,325,48,13,55,272,41,38,70,291,50*5A
$GPGGA,081358.20,3958.57083905,N,11619.55794548,E,1,17,1.3,54.1802,M,-9.2769,M,00,0000*46
$GPGGA,081358.40,3958.57083108,N,11619.55793980,E,1,17,1.3,54.1620,M,-9.2769,M,00,0000*44
$GPGGA,081358.60,3958.57082351,N,11619.55793140,E,1,18,1.3,54.1342,M,-9.2769,M,00,0000*43
$GPGGA,081358.80,3958.57081573,N,11619.55792378,E,1,17,1.3,54.1159,M,-9.2769,M,00,0000*47
$GPGGA,081359.00,3958.57080836,N,11619.55791521,E,1,17,1.3,54.0895,M,-9.2769,M,00,0000*42
$GPGSV,1,1,04,06,59,284,43,17,70,077,48,19,73,357,49,03,26,045,36*70
$GLGSV,1,1,04,66,46,083,45,82,47,325,42,80,32,277,29,81,47,050,49*60
$GAGSV,2,1,05,26,69,000,48,13,29,069,29,31,28,305,29,01,43,239,38*64
$GAGSV,2,2,05,07,29,116,27*52
$BDGSV,2,1,07,27,27,092,41,30,72,030,51,32,52,107,50,29,34,300,36*6C
$BDGSV,2,2,07,08,71,325,48,13,55,272,40,38,70,291,50*5B
$GPGGA,081359.20,3958.57080096,N,11619.55790873,E,1,17,1.3,54.0714,M,-9.2769,M,00,0000*4F
$GPGGA,081359.40,3958.57079427,N,11619.55790212,E,1,17,1.3,54.0508,M,-9.2769,M,00,0000*43
$GPGGA,081359.60,3958.57078638,N,11619.55789511,E,1,17,1.3,54.0318,M,-9.2769,M,00,0000*47
$GPGGA,081359.80,3958.57078023,N,11619.55788744,E,1,18,1.3,54.0050,M,-9.2769,M,00,0000*46
$GPGGA,081400.00,3958.57077394,N,11619.55788048,E,1,18,1.3,53.9851,M,-9.2769,M,00,0000*49
$GPGSV,1,1,04,06,59,284,43,17,70,078,48,19,73,357,49,03,26,045,36*7F
$GLGSV,1,1,04,66,46,083,46,82,47,325,43,80,32,277,30,81,47,050,49*6A
$GAGSV,2,1,05,26,69,000,48,13,29,069,31,31,28,305,28,01,43,239,38*6C
$GAGSV,2,2,05,07,29,116,28*5D
$BDGSV,2,1,07,27,27,092,40,30,72,030,51,32,52,107,50,29,35,300,37*6D
$BDGSV,2,2,07,08,71,325,48,13,55,272,40,38,70,291,50*5B
$GPGGA,081400.20,3958.57076708,N,11619.55787348,E,1,18,1.3,53.9642,M,-9.2769,M,00,0000*4B
$GPGGA,081400.40,3958.57075960,N,11619.55786657,E,1,18,1.3,53.9480,M,-9.2769,M,00,0000*48
$GPGGA,081400.60,3958.57075288,N,11619.55785922,E,1,18,1.3,53.9284,M,-9.2769,M,00,0000*4B
$GPGGA,081400.80,3958.57074577,N,11619.55785184,E,1,18,1.3,53.9163,M,-9.2769,M,00,0000*4D
$GPGGA,081401.00,3958.57073906,N,11619.55784509,E,1,18,1.3,53.9030,M,-9.2769,M,00,0000*4E
$GPGSV,1,1,04,06,59,285,43,17,70,078,48,19,73,357,49,03,25,045,36*7D
$GLGSV,1,1,04,66,46,083,47,82,47,325,43,80,32,277,30,81,47,050,49*6B
$GAGSV,2,1,05,26,69,000,49,13,29,069,31,31,28,305,27,01,43,239,38*62
$GAGSV,2,2,05,07,29,116,28*5D
$BDGSV,2,1,07,27,27,092,38,30,72,030,51,32,52,107,51,29,35,300,37*63
$BDGSV,2,2,07,08,71,325,48,13,55,272,40,38,70,291,50*5B
$GPGGA,081401.20,3958.57073099,N,11619.55783906,E,1,18,1.3,53.8853,M,-9.2769,M,00,0000*4B
$GPGGA,081401.40,3958.57072508,N,11619.55783331,E,1,18,1.3,53.8714,M,-9.2769,M,00,0000*43
$GPGGA,081401.60,3958.57071862,N,11619.55782625,E,1,18,1.3,53.8582,M,-9.2769,M,00,0000*4F
$GPGGA,081401.80,3958.57071163,N,11619.55782013,E,1,17,1.3,53.8478,M,-9.2769,M,00,0000*41
$GPGGA,081402.00,3958.57070640,N,11619.55781487,E,1,17,1.3,53.8377,M,-9.2769,M,00,0000*4F
$GPGSV,1,1,04,06,59,285,43,17,70,078,48,19,73,357,49,03,25,045,36*7D
$GLGSV,1,1,04,66,46,083,47,82,47,325,43,80,32,277,29,81,47,050,49*63
$GAGSV,2,1,05,26,69,000,49,13,29,069,31,31,28,305,27,01,43,239,38*62
$GAGSV,2,2,05,07,29,116,28*5D
$BDGSV,2,1,07,27,27,092,37,30,72,030,51,32,52,107,51,29,35,300,37*6C
$BDGSV,2,2,07,08,71,325,48,13,55,272,40,38,70,291,50*5B
$GPGGA,081402.20,3958.57070124,N,11619.55781000,E,1,17,1.3,53.8255,M,-9.2769,M,00,0000*42
$GPGGA,081402.40,3958.57069544,N,11619.55780486,E,1,17,1.3,53.8179,M,-9.2769,M,00,0000*48
$GPGGA,081402.60,3958.57068988,N,11619.55779954,E,1,17,1.3,53.8065,M,-9.2769,M,00,0000*4F
$GPGGA,081402.80,3958.57068337,N,11619.55779431,E,1,17,1.3,53.8001,M,-9.2769,M,00,0000*43
$GPGGA,081403.00,3958.57067674,N,11619.55778896,E,1,17,1.3,53.7917,M,-9.2769,M,00,0000*46
$GPGSV,1,1,04,06,59,285,43,17,69,078,48,19,73,357,49,03,25,045,36*75
$GLGSV,1,1,04,66,46,083,47,82,47,325,42,80,32,277,29,81,47,050,49*62
$GAGSV,2,1,05,26,69,000,49,13,29,069,32,31,28,305,27,01,43,239,37*6E
$GAGSV,2,2,05,07,29,116,28*5D
$BDGSV,2,1,07,27,27,092,38,30,72,030,51,32,52,107,51,29,35,300,36*62
$BDGSV,2,2,07,08,71,325,48,13,55,272,40,38,70,291,50*5B
$GPGGA,081403.20,3958.57067192,N,11619.55778355,E,1,17,1.3,53.7800,M,-9.2769,M,00,0000*48
$GPGGA,081403.40,3958.57066750,N,11619.55777776,E,1,17,1.3,53.7674,M,-9.2769,M,00,0000*40
$GPGGA,081403.60,3958.57066235,N,11619.55777243,E,1,17,1.3,53.7548,M,-9.2769,M,00,0000*4B
$GPGGA,081403.80,3958.57065709,N,11619.55776754,E,1,17,1.3,53.7449,M,-9.2769,M,00,0000*4E
$GPGGA,081404.00,3958.57065228,N,11619.55776401,E,1,17,1.3,53.7383,M,-9.2769,M,00,0000*45
$GPGSV,1,1,04,06,59,285,43,17,69,078,48,19,73,357,48,03,25,045,36*74
$GLGSV,1,1,04,66,46,083,46,82,47,325,42,80,32,277,29,81,47,050,49*63
$GAGSV,2,1,05,26,69,000,49,13,29,069,32,31,28,305,26,01,43,239,37*6F
$GAGSV,2,2,05,07,29,116,28*5D
$BDGSV,2,1,07,27,27,092,38,30,72,030,51,32,52,107,51,29,35,300,36*62
$BDGSV,2,2,07,08,71,325,48,13,55,272,40,38,70,291,50*5B
$GPGGA,081404.20,3958.57064695,N,11619.55775966,E,1,17,1.3,53.7303,M,-9.2769,M,00,0000*43
$GPGGA,081404.40,3958.57064283,N,11619.55775582,E,1,17,1.3,53.7268,M,-9.2769,M,00,0000*4C
$GPGGA,081404.60,3958.57063728,N,11619.55775092,E,1,17,1.3,53.7253,M,-9.2769,M,00,0000*41
$GPGGA,081404.80,3958.57063273,N,11619.55774626,E,1,17,1.3,53.7156,M,-9.2769,M,00,0000*4A
$GPGGA,081405.00,3958.57062834,N,11619.55774329,E,1,17,1.3,53.7141,M,-9.2769,M,00,0000*47
$GPGSV,1,1,04,06,59,285,43,17,69,078,47,19,73,357,48,03,25,045,36*7B
$GLGSV,1,1,04,66,46,083,46,82,47,325,42,80,32,277,29,81,47,050,49*63
$GAGSV,2,1,05,26,69,000,48,13,29,069,32,31,28,305,25,01,43,239,38*62
$GAGSV,2,2,05,07,29,116,27*52
$BDGSV,2,1,07,27,27,092,39,30,72,030,51,32,52,107,51,29,35,300,36*63
$BDGSV,2,2,07,08,71,325,48,13,55,272,40,38,70,291,50*5B
$GPGGA,081405.20,3958.57062382,N,11619.55773862,E,1,17,1.3,53.7024,M,-9.2769,M,00,0000*42
$GPGGA,081405.40,3958.57061999,N,11619.55773436,E,1,17,1.3,53.6883,M,-9.2769,M,00,0000*4E
$GPGGA,081405.60,3958.57061560,N,11619.55773028,E,1,17,1.3,53.6801,M,-9.2769,M,00,0000*47
$GPGGA,081405.80,3958.57061070,N,11619.55772614,E,1,17,1.3,53.6764,M,-9.2769,M,00,0000*49
$GPGGA,081406.00,3958.57060584,N,11619.55772248,E,1,17,1.3,53.6742,M,-9.2769,M,00,0000*44
$GPGSV,1,1,04,06,59,285,43,17,69,078,47,19,73,357,48,03,25,045,36*7B
$GLGSV,1,1,04,66,46,083,46,82,47,325,42,80,32,277,29,81,47,050,48*62
$GAGSV,1,1,04,26,69,000,48,13,29,069,32,01,43,239,38,07,29,116,28*69
$BDGSV,2,1,07,27,27,092,39,30,72,030,51,32,52,107,51,29,35,300,36*63
$BDGSV,2,2,07,08,71,325,48,13,55,272,40,38,70,291,50*5B
$GPGGA,081406.20,3958.57060118,N,11619.55771701,E,1,18,1.3,53.6637,M,-9.2769,M,00,0000*40
$GPGGA,081406.40,3958.57059652,N,11619.55771171,E,1,18,1.3,53.6514,M,-9.2769,M,00,0000*46
$GPGGA,081406.60,3958.57059221,N,11619.55770704,E,1,18,1.3,53.6408,M,-9.2769,M,00,0000*4D
$GPGGA,081406.80,3958.57058837,N,11619.55770279,E,1,18,1.3,53.6355,M,-9.2769,M,00,0000*4F
$GPGGA,081407.00,3958.57058439,N,11619.55769810,E,1,18,1.3,53.6278,M,-9.2769,M,00,0000*47
$GPGSV,1,1,04,06,59,285,42,17,69,078,47,19,73,357,48,03,25,045,36*7A
$GLGSV,1,1,04,66,46,083,47,82,47,325,41,80,32,277,30,81,47,050,49*69
$GAGSV,1,1,04,26,69,000,49,13,29,069,32,01,43,239,38,07,29,116,28*68
$BDGSV,2,1,07,27,27,092,39,30,72,030,51,32,52,107,51,29,35,300,36*63
$BDGSV,2,2,07,08,71,325,48,13,55,272,40,38,70,292,50*58
$GPGGA,081407.20,3958.57058061,N,11619.55769468,E,1,17,1.3,53.6200,M,-9.2769,M,00,0000*4F
$GPGGA,081407.40,3958.57057616,N,11619.55769094,E,1,18,1.3,53.6128,M,-9.2769,M,00,0000*41
$GPGGA,081407.60,3958.57057354,N,11619.55768823,E,1,17,1.3,53.6070,M,-9.2769,M,00,0000*46
$GPGGA,081407.80,3958.57056889,N,11619.55768254,E,1,18,1.3,53.6026,M,-9.2769,M,00,0000*44
$GPGGA,081408.00,3958.57056591,N,11619.55767944,E,1,17,1.3,53.5984,M,-9.2769,M,00,0000*4F
$GPGSV,1,1,04,06,59,285,42,17,69,078,47,19,73,357,48,03,25,045,36*7A
$GLGSV,1,1,04,66,46,083,47,82,47,325,41,80,32,277,29,81,47,050,49*61
$GAGSV,1,1,04,26,69,000,48,13,29,069,32,01,43,239,38,07,29,116,28*69
$BDGSV,2,1,07,27,27,092,39,30,72,030,51,32,52,107,51,29,35,300,36*63
$BDGSV,2,2,07,08,71,325,48,13,55,272,40,38,70,292,50*58
$GPGGA,081408.20,3958.57056296,N,11619.55767643,E,1,17,1.3,53.5976,M,-9.2769,M,00,0000*48
$GPGGA,081408.40,3958.57055976,N,11619.55767316,E,1,17,1.3,53.5907,M,-9.2769,M,00,0000*4B
$GPGGA,081408.60,3958.57055675,N,11619.55767031,E,1,17,1.3,53.5844,M,-9.2769,M,00,0000*45
$GPGGA,081408.80,3958.57055428,N,11619.55766735,E,1,17,1.3,53.5846,M,-9.2769,M,00,0000*41
$GPGGA,081409.00,3958.57055274,N,11619.55766397,E,1,17,1.3,53.5756,M,-9.2769,M,00,0000*45
$GPGSV,1,1,04,06,59,285,43,17,69,078,47,19,73,357,48,03,25,045,36*7B
$GLGSV,1,1,04,66,46,083,46,82,47,325,41,80,32,277,29,81,47,050,49*60
$GAGSV,1,1,04,26,69,000,48,13,29,069,33,01,43,239,38,07,29,116,27*67
$BDGSV,2,1,07,27,27,092,40,30,72,030,51,32,52,107,51,29,35,300,36*6D
$BDGSV,2,2,07,08,71,325,48,13,55,272,40,38,70,292,50*58
$GPGGA,081409.20,3958.57055014,N,11619.55765924,E,1,18,1.3,53.5697,M,-9.2769,M,00,0000*41
$GPGGA,081409.40,3958.57054688,N,11619.55765521,E,1,18,1.3,53.5610,M,-9.2769,M,00,0000*43
$GPGGA,081409.60,3958.57054452,N,11619.55765232,E,1,17,1.3,53.5568,M,-9.2769,M,00,0000*42
$GPGGA,081409.80,3958.57054285,N,11619.55764761,E,1,18,1.3,53.5459,M,-9.2769,M,00,0000*4E
$GPGGA,081410.00,3958.57054181,N,11619.55764530,E,1,17,1.3,53.5392,M,-9.2769,M,00,0000*40
$GPGSV,1,1,04,06,59,285,43,17,69,078,48,19,73,357,48,03,25,045,36*74
$GLGSV,1,1,04,66,46,083,47,82,47,325,41,80,32,277,29,81,47,050,49*61
$GAGSV,1,1,04,26,69,000,48,13,29,069,32,01,43,239,38,07,29,116,26*67
$BDGSV,2,1,07,27,27,092,40,30,72,030,51,32,52,107,51,29,35,300,36*6D
$BDGSV,2,2,07,08,71,325,48,13,55,272,41,38,70,292,50*59
$GPGGA,081410.20,3958.57053983,N,11619.55764331,E,1,17,1.3,53.5364,M,-9.2769,M,00,0000*41
$GPGGA,081410.40,3958.57053951,N,11619.55764144,E,1,17,1.3,53.5357,M,-9.2769,M,00,0000*48
$GPGGA,081410.60,3958.57053846,N,11619.55763796,E,1,17,1.3,53.5270,M,-9.2769,M,00,0000*47
$GPGGA,081410.80,3958.57054677,N,11619.55764242,E,1,19,1.1,53.4799,M,-9.2769,M,00,0000*46
$GPGGA,081411.00,3958.57055657,N,11619.55764921,E,1,18,1.2,53.4294,M,-9.2769,M,00,0000*48
$GPGSV,1,1,04,06,59,285,43,17,69,078,48,19,73,357,48,03,25,045,36*74
$GLGSV,1,1,04,66,46,083,47,82,47,325,41,80,32,277,29,81,47,050,49*61
$GAGSV,1,1,04,26,69,000,49,13,29,069,32,01,43,239,38,07,29,116,27*67
$BDGSV,2,1,07,27,27,092,39,30,72,030,51,32,52,107,51,29,35,300,36*63
$BDGSV,2,2,07,08,71,325,48,13,55,272,41,38,70,292,50*59
$GPGGA,081411.20,3958.57056643,N,11619.55765311,E,1,19,1.1,53.3778,M,-9.2769,M,00,0000*46
$GPGGA,081411.40,3958.57057529,N,11619.55765912,E,1,18,1.2,53.3399,M,-9.2769,M,00,0000*4E
$GPGGA,081411.60,3958.57058426,N,11619.55766488,E,1,18,1.2,53.3011,M,-9.2769,M,00,0000*43
$GPGGA,081411.80,3958.57059147,N,11619.55766736,E,1,19,1.1,53.2510,M,-9.2769,M,00,0000*4F
$GPGGA,081412.00,3958.57059031,N,11619.55766319,E,1,18,1.3,53.2530,M,-9.2769,M,00,0000*4C
$GPGSV,1,1,04,06,59,285,43,17,69,078,48,19,73,357,48,03,25,045,36*74
$GLGSV,1,1,04,66,46,083,47,82,47,325,40,80,32,277,30,81,47,050,49*68
$GAGSV,1,1,04,26,69,000,49,13,29,069,32,01,43,239,38,07,29,116,27*67
$BDGSV,2,1,07,27,27,092,39,30,72,030,51,32,52,107,51,29,35,300,36*63
$BDGSV,2,2,07,08,71,325,48,13,55,272,41,38,70,292,50*59
$GPGGA,081412.20,3958.57058936,N,11619.55765856,E,1,18,1.3,53.2499,M,-9.2769,M,00,0000*40
$GPGGA,081412.40,3958.57058655,N,11619.55765320,E,1,18,1.3,53.2444,M,-9.2769,M,00,0000*46
$GPGGA,081412.60,3958.57058427,N,11619.55764846,E,1,18,1.3,53.2430,M,-9.2769,M,00,0000*4A
$GPGGA,081412.80,3958.57058374,N,11619.55764498,E,1,18,1.3,53.2401,M,-9.2769,M,00,0000*48
$GPGGA,081413.00,3958.57058128,N,11619.55764068,E,1,18,1.3,53.2389,M,-9.2769,M,00,0000*46
$GPGSV,1,1,04,06,59,285,43,17,69,078,48,19,73,357,48,03,25,045,36*74
$GLGSV,1,1,04,66,46,083,47,82,47,325,40,80,32,277,30,81,47,050,49*68
$GAGSV,1,1,04,26,69,000,49,13,29,069,32,01,43,239,38,07,29,116,27*67
$BDGSV,2,1,07,27,27,092,39,30,72,030,51,32,52,107,51,29,35,300,36*63
$BDGSV,2,2,07,08,71,325,48,13,55,272,41,38,70,292,50*59
$GPGGA,081413.20,3958.57057879,N,11619.55763621,E,1,18,1.3,53.2380,M,-9.2769,M,00,0000*43
$GPGGA,081413.40,3958.57057628,N,11619.55763206,E,1,18,1.3,53.2324,M,-9.2769,M,00,0000*40
$GPGGA,081413.60,3958.57057304,N,11619.55762788,E,1,18,1.3,53.2378,M,-9.2769,M,00,0000*42
$GPGGA,081413.80,3958.57057162,N,11619.55762492,E,1,18,1.3,53.2395,M,-9.2769,M,00,0000*45
$GPGGA,081414.00,3958.57056849,N,11619.55762155,E,1,18,1.3,53.2413,M,-9.2769,M,00,0000*4C
$GPGSV,1,1,04,06,59,285,43,17,69,078,48,19,73,357,48,03,25,045,36*74
$GLGSV,1,1,04,66,46,083,47,82,47,325,40,80,32,277,31,81,47,050,49*69
$GAGSV,1,1,04,26,69,000,49,13,29,069,32,01,43,239,38,07,29,116,27*67
$BDGSV,2,1,07,27,27,092,39,30,72,030,52,32,52,107,51,29,35,300,37*61
$BDGSV,2,2,07,08,71,325,48,13,55,272,41,38,70,292,50*59
$GPGGA,081414.20,3958.57056786,N,11619.55761881,E,1,18,1.3,53.2406,M,-9.2769,M,00,0000*45
$GPGGA,081414.40,3958.57056498,N,11619.55761588,E,1,18,1.3,53.2454,M,-9.2769,M,00,0000*4C
$GPGGA,081414.60,3958.57056431,N,11619.55761428,E,1,18,1.3,53.2489,M,-9.2769,M,00,0000*46
$GPGGA,081414.80,3958.57056338,N,11619.55761150,E,1,18,1.3,53.2448,M,-9.2769,M,00,0000*41
$GPGGA,081415.00,3958.57056195,N,11619.55760894,E,1,18,1.3,53.2390,M,-9.2769,M,00,0000*4F
$GPGSV,1,1,04,06,59,285,43,17,69,078,48,19,73,357,48,03,25,045,35*77
$GLGSV,1,1,04,66,46,083,47,82,47,325,40,80,32,277,31,81,47,050,49*69
$GAGSV,1,1,04,26,69,000,49,13,29,069,32,01,43,239,38,07,29,116,26*66
$BDGSV,2,1,07,27,27,092,39,30,72,030,51,32,52,107,51,29,35,300,37*62
$BDGSV,2,2,07,08,71,325,48,13,55,272,40,38,70,292,50*58
$GPGGA,081415.20,3958.57056044,N,11619.55760674,E,1,18,1.3,53.2378,M,-9.2769,M,00,0000*46
$GPGGA,081415.40,3958.57056064,N,11619.55760510,E,1,18,1.3,53.2417,M,-9.2769,M,00,0000*4D
$GPGGA,081415.60,3958.57056024,N,11619.55760325,E,1,18,1.3,53.2414,M,-9.2769,M,00,0000*48
$GPGGA,081415.80,3958.57055907,N,11619.55760041,E,1,18,1.3,53.2403,M,-9.2769,M,00,0000*4A
$GPGGA,081416.00,3958.57055912,N,11619.55759794,E,1,18,1.3,53.2362,M,-9.2769,M,00,0000*40
$GPGSV,1,1,04,06,59,285,43,17,69,078,48,19,73,357,49,03,25,045,35*76
$GLGSV,1,1,04,66,46,083,47,82,47,325,41,80,32,277,31,81,47,050,49*68
$GAGSV,1,1,04,26,69,000,48,13,29,069,32,01,43,239,38,07,29,116,27*66
$BDGSV,2,1,07,27,27,092,39,30,72,030,51,32,52,107,50,29,35,300,37*63
$BDGSV,2,2,07,08,71,325,48,13,55,272,40,38,69,292,50*50
$GPGGA,081416.20,3958.57055815,N,11619.55759657,E,1,18,1.3,53.2365,M,-9.2769,M,00,0000*4D
$GPGGA,081416.40,3958.57055765,N,11619.55759500,E,1,18,1.3,53.2401,M,-9.2769,M,00,0000*47
$GPGGA,081416.60,3958.57055756,N,11619.55759255,E,1,18,1.3,53.2391,M,-9.2769,M,00,0000*4C
$GPGGA,081416.80,3958.57055824,N,11619.55759212,E,1,18,1.3,53.2458,M,-9.2769,M,00,0000*49
$GPGGA,081417.00,3958.57055893,N,11619.55759094,E,1,18,1.3,53.2450,M,-9.2769,M,00,0000*48
$GPGSV,1,1,04,06,59,285,43,17,69,078,48,19,73,357,49,03,25,045,35*76
$GLGSV,1,1,04,66,46,083,47,82,47,325,41,80,32,277,31,81,47,050,49*68
$GAGSV,2,1,05,26,69,000,48,13,29,069,32,33,34,281,26,01,43,239,38*63
$GAGSV,2,2,05,07,29,116,27*52
$BDGSV,2,1,07,27,27,092,39,30,72,030,51,32,52,107,50,29,35,300,37*63
$BDGSV,2,2,07,08,71,325,48,13,55,272,40,38,69,292,50*50
$GPGGA,081417.20,3958.57055928,N,11619.55758935,E,1,18,1.3,53.2479,M,-9.2769,M,00,0000*43
$GPGGA,081417.40,3958.57056157,N,11619.55758810,E,1,18,1.3,53.2451,M,-9.2769,M,00,0000*4A
$GPGGA,081417.60,3958.57056114,N,11619.55758576,E,1,18,1.3,53.2448,M,-9.2769,M,00,0000*4A
$GPGGA,081417.80,3958.57056054,N,11619.55758269,E,1,18,1.3,53.2425,M,-9.2769,M,00,0000*43
$GPGGA,081418.00,3958.57056052,N,11619.55757922,E,1,18,1.3,53.2327,M,-9.2769,M,00,0000*4C
$GPGSV,1,1,04,06,59,285,43,17,69,078,48,19,73,357,49,03,25,045,34*77
$GLGSV,1,1,04,66,46,083,47,82,47,325,40,80,32,277,30,81,47,050,49*68
$GAGSV,2,1,05,26,69,000,48,13,29,069,32,33,34,281,26,01,43,239,37*6C
$GAGSV,2,2,05,07,29,116,27*52
$BDGSV,2,1,07,27,27,092,38,30,72,030,51,32,52,107,50,29,35,300,37*62
$BDGSV,2,2,07,08,71,325,48,13,55,272,40,38,69,292,50*50
$GPGGA,081418.20,3958.57056029,N,11619.55757809,E,1,18,1.3,53.2375,M,-9.2769,M,00,0000*4D
$GPGGA,081418.40,3958.57056010,N,11619.55757638,E,1,18,1.3,53.2433,M,-9.2769,M,00,0000*48
$GPGGA,081418.60,3958.57055991,N,11619.55757413,E,1,18,1.3,53.2446,M,-9.2769,M,00,0000*40
$GPGGA,081418.80,3958.57056109,N,11619.55757174,E,1,18,1.3,53.2424,M,-9.2769,M,00,0000*44
$GPGGA,081419.00,3958.57056157,N,11619.55756945,E,1,18,1.3,53.2357,M,-9.2769,M,00,0000*4E
$GPGSV,1,1,04,06,59,285,43,17,69,078,48,19,73,357,49,03,25,045,34*77
$GLGSV,1,1,04,66,46,083,47,82,47,326,40,80,32,277,30,81,47,050,48*6A
$GAGSV,2,1,05,26,69,000,48,13,29,069,33,33,34,281,26,01,43,239,37*6D
$GAGSV,2,2,05,07,29,116,28*5D
$BDGSV,2,1,07,27,27,092,38,30,72,030,51,32,52,107,50,29,35,300,37*62
$BDGSV,2,2,07,08,71,325,48,13,55,272,40,38,69,292,50*50
$GPGGA,081419.20,3958.57056208,N,11619.55756845,E,1,18,1.3,53.2379,M,-9.2769,M,00,0000*48
$GPGGA,081419.40,3958.57056183,N,11619.55756574,E,1,18,1.3,53.2392,M,-9.2769,M,00,0000*44
$GPGGA,081419.60,3958.57056241,N,11619.55756449,E,1,18,1.3,53.2400,M,-9.2769,M,00,0000*48
$GPGGA,081419.80,3958.57056258,N,11619.55756357,E,1,18,1.3,53.2374,M,-9.2769,M,00,0000*42
$GPGGA,081420.00,3958.57056196,N,11619.55756125,E,1,18,1.3,53.2397,M,-9.2769,M,00,0000*4B
$GPGSV,1,1,04,06,59,285,43,17,69,078,48,19,73,357,49,03,25,045,34*77
$GLGSV,1,1,04,66,46,083,47,82,47,326,40,80,32,277,30,81,47,050,48*6A
$GAGSV,2,1,05,26,69,000,48,13,29,069,33,33,34,281,25,01,43,239,37*6E
$GAGSV,2,2,05,07,29,116,27*52
$BDGSV,2,1,07,27,27,092,38,30,72,030,51,32,52,107,50,29,35,300,37*62
$BDGSV,2,2,07,08,71,325,48,13,55,272,40,38,69,292,50*50
$GPGGA,081420.20,3958.57056159,N,11619.55755977,E,1,17,1.3,53.2441,M,-9.2769,M,00,0000*45
$GPGGA,081420.40,3958.57056305,N,11619.55755793,E,1,17,1.3,53.2380,M,-9.2769,M,00,0000*46
$GPGGA,081420.60,3958.57056305,N,11619.55755619,E,1,18,1.3,53.2418,M,-9.2769,M,00,0000*4E
$GPGGA,081420.80,3958.57056401,N,11619.55755622,E,1,17,1.3,53.2507,M,-9.2769,M,00,0000*4B
$GPGGA,081421.00,3958.57056477,N,11619.55755561,E,1,17,1.3,53.2514,M,-9.2769,M,00,0000*45
$GPGSV,1,1,04,06,59,285,43,17,69,078,48,19,73,357,49,03,25,045,33*70
$GLGSV,1,1,04,66,46,083,47,82,47,326,40,80,32,277,29,81,47,050,48*62
$GAGSV,2,1,05,26,69,000,48,13,29,069,32,33,34,281,27,01,43,239,37*6D
$GAGSV,2,2,05,07,29,116,28*5D
$BDGSV,2,1,07,27,27,092,38,30,72,030,51,32,52,107,50,29,35,300,37*62
$BDGSV,2,2,07,08,71,325,48,13,55,272,40,38,69,292,50*50
$GPGGA,081421.20,3958.57056502,N,11619.55755558,E,1,17,1.3,53.2561,M,-9.2769,M,00,0000*4C
$GPGGA,081421.40,3958.57056544,N,11619.55755507,E,1,17,1.3,53.2616,M,-9.2769,M,00,0000*41
$GPGGA,081421.60,3958.57056721,N,11619.55755462,E,1,17,1.3,53.2630,M,-9.2769,M,00,0000*44
$GPGGA,081421.80,3958.57056851,N,11619.55755405,E,1,17,1.3,53.2643,M,-9.2769,M,00,0000*47
$GPGGA,081422.00,3958.57056958,N,11619.55755294,E,1,17,1.3,53.2663,M,-9.2769,M,00,0000*48
$GPGSV,1,1,04,06,60,285,43,17,69,078,48,19,73,357,49,03,25,045,33*7A
$GLGSV,1,1,04,66,46,083,47,82,47,326,40,80,32,277,29,81,47,050,48*62
$GAGSV,2,1,05,26,69,000,48,13,29,069,32,33,34,281,26,01,43,239,37*6C
$GAGSV,2,2,05,07,29,116,28*5D
$BDGSV,2,1,07,27,27,092,37,30,72,030,51,32,52,107,50,29,35,300,38*62
$BDGSV,2,2,07,08,71,325,48,13,55,272,40,38,69,292,50*50
$GPGGA,081422.20,3958.57056916,N,11619.55755132,E,1,17,1.3,53.2716,M,-9.2769,M,00,0000*4C
$GPGGA,081422.40,3958.57057030,N,11619.55755112,E,1,17,1.3,53.2739,M,-9.2769,M,00,0000*49
$GPGGA,081422.60,3958.57057071,N,11619.55755054,E,1,17,1.3,53.2808,M,-9.2769,M,00,0000*40
$GPGGA,081422.80,3958.57057121,N,11619.55755008,E,1,18,1.3,53.2883,M,-9.2769,M,00,0000*4F
$GPGGA,081423.00,3958.57057183,N,11619.55754824,E,1,18,1.3,53.2885,M,-9.2769,M,00,0000*4F
$GPGSV,1,1,03,06,60,285,43,17,69,078,48,19,73,357,49*48
$GLGSV,1,1,04,66,46,083,47,82,47,326,40,80,32,276,30,81,47,050,48*6B
$GAGSV,1,1,04,26,69,000,48,13,29,069,33,01,43,239,37,07,29,116,28*67
$BDGSV,2,1,07,27,27,092,37,30,72,030,51,32,52,107,50,29,35,300,38*62
$BDGSV,2,2,07,08,71,325,47,13,55,272,40,38,69,292,50*5F
$GPGGA,081423.20,3958.57057201,N,11619.55754747,E,1,18,1.3,53.2891,M,-9.2769,M,00,0000*4B
$GPGGA,081423.40,3958.57057331,N,11619.55754848,E,1,18,1.3,53.2982,M,-9.2769,M,00,0000*4C
$GPGGA,081423.60,3958.57057344,N,11619.55754690,E,1,18,1.3,53.3005,M,-9.2769,M,00,0000*40
$GPGGA,081423.80,3958.57057297,N,11619.55754545,E,1,18,1.3,53.3115,M,-9.2769,M,00,0000*4A
$GPGGA,081424.00,3958.57057361,N,11619.55754635,E,1,18,1.3,53.3161,M,-9.2769,M,00,0000*4A
$GPGSV,1,1,03,06,60,285,43,17,69,078,48,19,73,357,49*48
$GLGSV,1,1,04,66,46,083,46,82,47,326,41,80,32,276,31,81,47,050,49*6B
$GAGSV,1,1,04,26,69,000,48,13,29,069,33,01,43,239,37,07,29,116,28*67
$BDGSV,2,1,07,27,27,092,37,30,72,030,51,32,52,107,50,29,35,300,37*6D
$BDGSV,2,2,07,08,71,325,47,13,55,272,40,38,69,292,50*5F
$GPGGA,081424.20,3958.57057489,N,11619.55754649,E,1,18,1.3,53.3145,M,-9.2769,M,00,0000*44
$GPGGA,081424.40,3958.57057518,N,11619.55754591,E,1,18,1.3,53.3235,M,-9.2769,M,00,0000*49
$GPGGA,081424.60,3958.57057599,N,11619.55754575,E,1,18,1.3,53.3348,M,-9.2769,M,00,0000*43
$GPGGA,081424.80,3958.57057722,N,11619.55754526,E,1,18,1.3,53.3429,M,-9.2769,M,00,0000*49
$GPGGA,081425.00,3958.57057807,N,11619.55754492,E,1,18,1.3,53.3475,M,-9.2769,M,00,0000*4F
$GPGSV,1,1,03,06,60,285,43,17,69,078,48,19,73,357,48*49
$GLGSV,1,1,04,66,46,083,46,82,47,326,41,80,32,276,30,81,47,050,49*6A
$GAGSV,1,1,04,26,69,000,48,13,29,069,33,01,43,239,37,07,29,116,28*67
$BDGSV,2,1,07,27,27,092,37,30,72,030,51,32,52,107,50,29,35,300,37*6D
$BDGSV,2,2,07,08,71,325,47,13,55,272,40,38,69,292,50*5F
$GPGGA,081425.20,3958.57057790,N,11619.55754450,E,1,18,1.3,53.3499,M,-9.2769,M,00,0000*40
$GPGGA,081425.40,3958.57057878,N,11619.55754423,E,1,18,1.3,53.3484,M,-9.2769,M,00,0000*47
$GPGGA,081425.60,3958.57057818,N,11619.55754378,E,1,18,1.3,53.3507,M,-9.2769,M,00,0000*40
$GPGGA,081425.80,3958.57057706,N,11619.55754220,E,1,18,1.3,53.3634,M,-9.2769,M,00,0000*41
$GPGGA,081426.00,3958.57057835,N,11619.55754063,E,1,18,1.3,53.3694,M,-9.2769,M,00,0000*4A
$GPGSV,1,1,03,06,60,285,44,17,69,078,48,19,73,357,48*4E
$GLGSV,1,1,04,66,46,083,46,82,47,326,41,80,32,276,30,81,47,050,48*6B
$GAGSV,1,1,04,26,69,000,48,13,29,069,33,01,43,239,37,07,29,116,28*67
$BDGSV,2,1,07,27,27,092,37,30,72,030,51,32,52,107,50,29,35,300,37*6D
$BDGSV,2,2,07,08,71,325,47,13,55,272,40,38,69,292,50*5F
$GPGGA,081426.20,3958.57057941,N,11619.55753942,E,1,18,1.3,53.3733,M,-9.2769,M,00,0000*4B
$GPGGA,081426.40,3958.57058027,N,11619.55753829,E,1,18,1.3,53.3742,M,-9.2769,M,00,0000*41
$GPGGA,081426.60,3958.57058026,N,11619.55753657,E,1,18,1.3,53.3772,M,-9.2769,M,00,0000*46
$GPGGA,081426.80,3958.57058201,N,11619.55753576,E,1,18,1.3,53.3779,M,-9.2769,M,00,0000*44
$GPGGA,081427.00,3958.57058368,N,11619.55753597,E,1,18,1.3,53.3824,M,-9.2769,M,00,0000*4B
$GPGSV,1,1,03,06,60,285,44,17,69,078,48,19,73,357,48*4E
$GLGSV,1,1,04,66,46,083,46,82,47,326,41,80,32,276,30,81,47,050,49*6A
$GAGSV,1,1,04,26,69,000,48,13,29,069,33,01,43,239,37,07,29,115,28*64
$BDGSV,2,1,07,27,27,092,36,30,72,030,51,32,52,107,50,29,35,300,37*6C
$BDGSV,2,2,07,08,71,325,48,13,55,272,40,38,69,292,50*50
$GPGGA,081427.20,3958.57058413,N,11619.55753526,E,1,18,1.3,53.3894,M,-9.2769,M,00,0000*43
$GPGGA,081427.40,3958.57058513,N,11619.55753315,E,1,18,1.3,53.3917,M,-9.2769,M,00,0000*48
$GPGGA,081427.60,3958.57058682,N,11619.55753241,E,1,18,1.3,53.3943,M,-9.2769,M,00,0000*40
$GPGGA,081427.80,3958.57058793,N,11619.55753225,E,1,18,1.3,53.3883,M,-9.2769,M,00,0000*40
$GPGGA,081428.00,3958.57058918,N,11619.55753223,E,1,18,1.3,53.3911,M,-9.2769,M,00,0000*46
$GPGSV,1,1,03,06,60,285,43,17,69,078,48,19,73,357,48*49
$GLGSV,1,1,04,66,46,083,46,82,47,326,41,80,32,276,31,81,47,050,49*6B
$GAGSV,1,1,04,26,69,000,48,13,29,069,33,01,42,239,37,07,29,115,28*65
$BDGSV,2,1,07,27,27,092,37,30,72,030,51,32,52,107,50,29,35,300,37*6D
$BDGSV,2,2,07,08,71,325,47,13,55,272,39,38,69,292,50*51
$GPGGA,081428.20,3958.57059099,N,11619.55753235,E,1,18,1.3,53.3924,M,-9.2769,M,00,0000*44
$GPGGA,081428.40,3958.57059194,N,11619.55753258,E,1,18,1.3,53.3925,M,-9.2769,M,00,0000*44
$GPGGA,081428.60,3958.57059381,N,11619.55753324,E,1,18,1.3,53.3993,M,-9.2769,M,00,0000*47
$GPGGA,081428.80,3958.57059616,N,11619.55753406,E,1,18,1.3,53.4057,M,-9.2769,M,00,0000*43
$GPGGA,081429.00,3958.57059731,N,11619.55753364,E,1,18,1.3,53.4113,M,-9.2769,M,00,0000*4C
$GPGSV,1,1,03,06,60,285,44,17,69,078,48,19,73,357,49*4F
$GLGSV,1,1,04,66,46,083,46,82,47,326,41,80,32,276,30,81,47,050,49*6A
$GAGSV,1,1,04,26,69,000,48,13,29,069,33,01,42,239,37,07,29,115,29*64
$BDGSV,2,1,07,27,27,092,36,30,72,030,51,32,52,107,50,29,35,300,37*6C
$BDGSV,2,2,07,08,71,325,47,13,55,272,39,38,69,292,50*51
$GPGGA,081429.20,3958.57059915,N,11619.55753518,E,1,17,1.3,53.4220,M,-9.2769,M,00,0000*47
$GPGGA,081429.40,3958.57059932,N,11619.55753573,E,1,18,1.3,53.4350,M,-9.2769,M,00,0000*40
$GPGGA,081429.60,3958.57060166,N,11619.55753648,E,1,18,1.3,53.4407,M,-9.2769,M,00,0000*4F
$GPGGA,081429.80,3958.57060330,N,11619.55753752,E,1,18,1.3,53.4495,M,-9.2769,M,00,0000*41
$GPGGA,081430.00,3958.57060353,N,11619.55753822,E,1,18,1.3,53.4581,M,-9.2769,M,00,0000*48
$GPGSV,1,1,03,06,60,285,44,17,69,078,48,19,73,357,48*4E
$GLGSV,1,1,04,66,46,083,46,82,47,326,41,80,32,276,30,81,47,050,49*6A
$GAGSV,1,1,04,26,69,000,48,13,29,069,33,01,42,239,37,07,29,115,29*64
$BDGSV,2,1,07,27,27,092,36,30,72,030,51,32,52,107,50,29,35,300,37*6C
$BDGSV,2,2,07,08,71,325,47,13,55,272,39,38,69,292,50*51
$GPGGA,081430.20,3958.57060525,N,11619.55754077,E,1,18,1.3,53.4686,M,-9.2769,M,00,0000*46
$GPGGA,081430.40,3958.57060769,N,11619.55754310,E,1,17,1.3,53.4762,M,-9.2769,M,00,0000*4C
$GPGGA,081430.60,3958.57060928,N,11619.55754383,E,1,18,1.3,53.4799,M,-9.2769,M,00,0000*44
$GPGGA,081430.80,3958.57061258,N,11619.55754489,E,1,18,1.3,53.4834,M,-9.2769,M,00,0000*42
$GPGGA,081431.00,3958.57061486,N,11619.55754695,E,1,17,1.3,53.4950,M,-9.2769,M,00,0000*4D
$GPGSV,1,1,03,06,60,285,44,17,69,078,48,19,73,357,48*4E
$GLGSV,1,1,04,66,46,083,46,82,47,326,41,80,32,276,29,81,47,050,49*62
$GAGSV,1,1,04,26,69,000,48,13,29,069,33,01,42,239,37,07,29,115,29*64
$BDGSV,2,1,07,27,27,092,36,30,72,030,51,32,52,107,50,29,35,300,37*6C
$BDGSV,2,2,07,08,71,325,47,13,55,273,39,38,69,292,50*50
$GPGGA,081431.20,3958.57061663,N,11619.55754768,E,1,18,1.3,53.4950,M,-9.2769,M,00,0000*4A
$GPGGA,081431.40,3958.57061895,N,11619.55754889,E,1,17,1.3,53.5032,M,-9.2769,M,00,0000*48
$GPGGA,081431.60,3958.57062056,N,11619.55754979,E,1,17,1.3,53.5070,M,-9.2769,M,00,0000*46
$GPGGA,081431.80,3958.57061695,N,11619.55757353,E,1,18,1.3,53.4110,M,-9.2769,M,00,0000*4A
$GPGGA,081432.00,3958.57061363,N,11619.55759683,E,1,18,1.3,53.3175,M,-9.2769,M,00,0000*4F
$GPGSV,1,1,03,06,60,285,44,17,69,078,48,19,73,357,48*4E
$GLGSV,1,1,04,66,46,082,46,82,47,326,41,80,32,276,29,81,47,050,49*63
$GAGSV,1,1,04,26,69,000,48,13,29,069,33,01,42,239,37,07,29,115,30*6C
$BDGSV,2,1,07,27,27,092,36,30,72,031,51,32,52,107,50,29,35,300,38*62
$BDGSV,2,2,07,08,71,325,48,13,55,273,39,38,69,292,50*5F
$GPGGA,081432.20,3958.57061033,N,11619.55761822,E,1,19,1.3,53.2265,M,-9.2769,M,00,0000*47
$GPGGA,081432.40,3958.57060756,N,11619.55763870,E,1,19,1.3,53.1316,M,-9.2769,M,00,0000*47
$GPGGA,081432.60,3958.57060557,N,11619.55766067,E,1,19,1.3,53.0490,M,-9.2769,M,00,0000*45
$GPGGA,081432.80,3958.57060293,N,11619.55768141,E,1,18,1.3,52.9702,M,-9.2769,M,00,0000*4E
$GPGGA,081433.00,3958.57060153,N,11619.55770189,E,1,18,1.3,52.8876,M,-9.2769,M,00,0000*48
$GPGSV,1,1,03,06,60,285,43,17,69,078,48,19,73,357,48*49
$GLGSV,1,1,04,66,46,082,47,82,47,326,41,80,32,276,29,81,47,050,49*62
$GAGSV,1,1,04,26,69,000,48,13,29,069,33,01,42,239,37,07,29,115,30*6C
$BDGSV,2,1,07,27,27,092,37,30,72,031,51,32,52,107,51,29,35,300,38*62
$BDGSV,2,2,07,08,71,325,47,13,55,273,40,38,69,292,50*5E
$GPGGA,081433.20,3958.57060178,N,11619.55772324,E,1,18,1.3,52.8092,M,-9.2769,M,00,0000*46
$GPGGA,081433.40,3958.57060052,N,11619.55774263,E,1,18,1.3,52.7323,M,-9.2769,M,00,0000*4B
$GPGGA,081433.60,3958.57060042,N,11619.55776173,E,1,18,1.3,52.6532,M,-9.2769,M,00,0000*4F
$GPGGA,081433.80,3958.57059926,N,11619.55778016,E,1,18,1.3,52.5784,M,-9.2769,M,00,0000*40
$GPGGA,081434.00,3958.57059968,N,11619.55779877,E,1,18,1.3,52.5115,M,-9.2769,M,00,0000*45
$GPGSV,1,1,03,06,60,285,43,17,69,078,48,19,73,357,48*49
$GLGSV,1,1,04,66,46,082,46,82,47,326,40,80,32,276,29,81,47,050,49*62
$GAGSV,1,1,04,26,69,000,48,13,29,069,30,01,42,239,37,07,29,115,30*6F
$BDGSV,2,1,07,27,27,092,38,30,72,031,51,32,52,107,51,29,35,300,38*6D
$BDGSV,2,2,07,08,71,325,48,13,55,273,40,38,69,292,50*51
$GPGGA,081434.20,3958.57059940,N,11619.55781448,E,1,18,1.3,52.4342,M,-9.2769,M,00,0000*4B
$GPGGA,081434.40,3958.57059857,N,11619.55783134,E,1,18,1.3,52.3616,M,-9.2769,M,00,0000*45
$GPGGA,081434.60,3958.57059770,N,11619.55784859,E,1,18,1.3,52.2981,M,-9.2769,M,00,0000*48
$GPGGA,081434.80,3958.57059677,N,11619.55786489,E,1,18,1.3,52.2269,M,-9.2769,M,00,0000*4E
$GPGGA,081435.00,3958.57059655,N,11619.55788092,E,1,18,1.3,52.1574,M,-9.2769,M,00,0000*4F
$GPGSV,1,1,03,06,60,285,44,17,69,078,48,19,73,358,48*41
$GLGSV,1,1,04,66,46,082,47,82,47,326,40,80,32,276,29,81,47,050,50*6B
$GAGSV,1,1,04,26,69,000,48,13,29,069,30,01,42,239,37,07,29,115,30*6F
$BDGSV,2,1,07,27,27,092,37,30,72,031,51,32,52,107,50,29,35,300,38*63
$BDGSV,2,2,07,08,71,325,47,13,55,273,40,38,69,292,50*5E
$GPGGA,081435.20,3958.57059495,N,11619.55789678,E,1,18,1.3,52.0999,M,-9.2769,M,00,0000*4E
$GPGGA,081435.40,3958.57059475,N,11619.55791302,E,1,18,1.3,52.0340,M,-9.2769,M,00,0000*49
$GPGGA,081435.60,3958.57059492,N,11619.55792934,E,1,18,1.3,51.9637,M,-9.2769,M,00,0000*41
$GPGGA,081435.80,3958.57059373,N,11619.55794343,E,1,18,1.3,51.8948,M,-9.2769,M,00,0000*4D
$GPGGA,081436.00,3958.57059436,N,11619.55795970,E,1,18,1.3,51.8319,M,-9.2769,M,00,0000*45
$GPGSV,1,1,03,06,60,285,43,17,69,078,48,19,73,358,48*46
$GLGSV,1,1,04,66,46,082,47,82,47,326,39,80,32,276,29,81,47,050,49*6D
$GAGSV,1,1,04,26,69,000,48,13,29,069,32,01,42,239,37,07,29,115,31*6C
$BDGSV,2,1,07,27,27,092,37,30,72,031,51,32,52,107,50,29,35,300,38*63
$BDGSV,2,2,07,08,71,325,47,13,55,273,40,38,69,292,50*5E
$GPGGA,081436.20,3958.57059511,N,11619.55797470,E,1,18,1.3,51.7740,M,-9.2769,M,00,0000*4B
$GPGGA,081436.40,3958.57059576,N,11619.55798830,E,1,18,1.3,51.7112,M,-9.2769,M,00,0000*4A
$GPGGA,081436.60,3958.57059713,N,11619.55800207,E,1,18,1.3,51.6489,M,-9.2769,M,00,0000*4F
$GPGGA,081436.80,3958.57059901,N,11619.55801540,E,1,18,1.3,51.5919,M,-9.2769,M,00,0000*4E
$GPGGA,081437.00,3958.57060278,N,11619.55802691,E,1,18,1.3,51.5434,M,-9.2769,M,00,0000*46
$GPGSV,1,1,03,06,60,285,43,17,69,078,48,19,73,358,48*46
$GLGSV,1,1,04,66,46,082,46,82,47,326,39,80,32,276,29,81,47,050,49*6C
$GAGSV,1,1,04,26,69,000,48,13,29,069,32,01,42,239,37,07,29,115,30*6D
$BDGSV,2,1,07,27,27,092,38,30,72,031,51,32,52,107,50,29,35,300,37*63
